[{"country":"AR","lat":-34.61315,"lng":-58.37723,"name":"Buenos Aires"},{"country":"MX","lat":19.42847,"lng":-99.12766,"name":"Mexico City"},{"country":"CN","lat":39.9075,"lng":116.39723,"name":"Beijing"},{"country":"PH","lat":14.6042,"lng":120.9822,"name":"Manila"},{"country":"RU","lat":55.75222,"lng":37.61556,"name":"Moscow"}]
